[
  {
    "id": 1,
    "name": "Bitpanda",
    "region": "Vienna",
    "lat": 48.2082,
    "long": 16.3738,
    "sector": "Fintech",
    "rent": "",
    "url": "https://www.bitpanda.com"
  },
  {
    "id": 2,
    "name": "TTTech",
    "region": "Vienna",
    "lat": 48.1859,
    "long": 16.3892,
    "sector": "Automotive & Industrial Tech",
    "rent": "",
    "url": "https://www.tttech.com"
  },
  {
    "id": 3,
    "name": "Anyline",
    "region": "Vienna",
    "lat": 48.1974,
    "long": 16.3673,
    "sector": "AI & Machine Learning",
    "rent": "",
    "url": "https://www.anyline.com"
  },
  {
    "id": 4,
    "name": "GoStudent",
    "region": "Vienna",
    "lat": 48.2089,
    "long": 16.3724,
    "sector": "EdTech",
    "rent": "",
    "url": "https://www.gostudent.org"
  },
  {
    "id": 5,
    "name": "Dynatrace",
    "region": "Upper Austria",
    "lat": 48.3069,
    "long": 14.2858,
    "sector": "Software Monitoring",
    "rent": "",
    "url": "https://www.dynatrace.com"
  },
  {
    "id": 6,
    "name": "Blue Minds",
    "region": "Vienna",
    "lat": 48.2035,
    "long": 16.3716,
    "sector": "CleanTech",
    "rent": "",
    "url": "https://www.blueminds-company.com"
  },
  {
    "id": 7,
    "name": "Parkside Interactive",
    "region": "Styria",
    "lat": 47.0707,
    "long": 15.4395,
    "sector": "Software Development",
    "rent": "",
    "url": "https://www.parkside-interactive.com"
  },
  {
    "id": 8,
    "name": "Speedinvest",
    "region": "Vienna",
    "lat": 48.2082,
    "long": 16.3738,
    "sector": "VC & Tech Investment",
    "rent": "",
    "url": "https://www.speedinvest.com"
  },
  {
    "id": 9,
    "name": "Runtastic",
    "region": "Upper Austria",
    "lat": 48.3366,
    "long": 14.3207,
    "sector": "Health Tech",
    "rent": "",
    "url": "https://www.runtastic.com"
  },
  {
    "id": 10,
    "name": "AVL List",
    "region": "Styria",
    "lat": 47.0655,
    "long": 15.4501,
    "sector": "Automotive Tech",
    "rent": "",
    "url": "https://www.avl.com"
  },
  {
    "id": 11,
    "name": "Pimcore",
    "region": "Salzburg",
    "lat": 47.8095,
    "long": 13.055,
    "sector": "Digital Experience Platform",
    "rent": "",
    "url": "https://www.pimcore.com"
  },
  {
    "id": 12,
    "name": "World Direct",
    "region": "Tyrol",
    "lat": 47.2692,
    "long": 11.4041,
    "sector": "E-Business Solutions",
    "rent": "",
    "url": "https://www.world-direct.at"
  },
  {
    "id": 13,
    "name": "TourRadar",
    "region": "Vienna",
    "lat": 48.2092,
    "long": 16.3728,
    "sector": "Travel Tech",
    "rent": "",
    "url": "https://www.tourradar.com"
  },
  {
    "id": 14,
    "name": "NXRT",
    "region": "Carinthia",
    "lat": 46.6249,
    "long": 14.3051,
    "sector": "VR Technology",
    "rent": "",
    "url": "https://www.nxrt.io"
  },
  {
    "id": 15,
    "name": "Frequentis",
    "region": "Vienna",
    "lat": 48.1865,
    "long": 16.3782,
    "sector": "Aviation Tech",
    "rent": "",
    "url": "https://www.frequentis.com"
  },
  {
    "id": 16,
    "name": "Leftshift One",
    "region": "Styria",
    "lat": 47.0683,
    "long": 15.438,
    "sector": "AI Solutions",
    "rent": "",
    "url": "https://www.leftshift.one"
  },
  {
    "id": 17,
    "name": "Wikitude",
    "region": "Salzburg",
    "lat": 47.8021,
    "long": 13.0442,
    "sector": "AR Technology",
    "rent": "",
    "url": "https://www.wikitude.com"
  },
  {
    "id": 18,
    "name": "Emotion3D",
    "region": "Vienna",
    "lat": 48.1902,
    "long": 16.3731,
    "sector": "3D Technology",
    "rent": "",
    "url": "https://www.emotion3d.at"
  },
  {
    "id": 19,
    "name": "Anexia",
    "region": "Carinthia",
    "lat": 46.6169,
    "long": 14.2619,
    "sector": "Cloud Services",
    "rent": "",
    "url": "https://www.anexia.com"
  },
  {
    "id": 20,
    "name": "Austriacard",
    "region": "Vienna",
    "lat": 48.2292,
    "long": 16.3891,
    "sector": "Digital Security",
    "rent": "",
    "url": "https://www.austriacard.com"
  },
  {
    "id": 21,
    "name": "Bongfish",
    "region": "Styria",
    "lat": 47.0628,
    "long": 15.4428,
    "sector": "Gaming Technology",
    "rent": "",
    "url": "https://www.bongfish.com"
  },
  {
    "id": 22,
    "name": "Greenhive",
    "region": "Lower Austria",
    "lat": 48.2047,
    "long": 16.3669,
    "sector": "GreenTech",
    "rent": "",
    "url": "https://www.greenhive.eu"
  },
  {
    "id": 23,
    "name": "Quantum Logic",
    "region": "Vienna",
    "lat": 48.2132,
    "long": 16.3794,
    "sector": "Quantum Computing",
    "rent": "",
    "url": "https://www.quantumlogic.at"
  },
  {
    "id": 24,
    "name": "Indoo.rs",
    "region": "Vorarlberg",
    "lat": 47.4239,
    "long": 9.7428,
    "sector": "Indoor Navigation",
    "rent": "",
    "url": "https://www.indoo.rs"
  },
  {
    "id": 25,
    "name": "Crypto Future",
    "region": "Vienna",
    "lat": 48.2,
    "long": 16.378,
    "sector": "Blockchain",
    "rent": "",
    "url": "https://www.crypto-future.com"
  },
  {
    "id": 26,
    "name": "Bitmovin",
    "region": "Carinthia",
    "lat": 46.6357,
    "long": 14.311817,
    "sector": "Multimedia Technology",
    "rent": "",
    "url": "https://bitmovin.com"
  }
]
